[{"ID":"L751858","Country":"US","State/Province":"US-VT","Region":"US-VT-009","Latitude":"44.9106027","Longitude":"-71.8440829","Name":"Avery Gore Pond (Unknown Pond) - Avery's Gore (19 acres)"},{"ID":"L751871","Country":"US","State/Province":"US-VT","Region":"US-VT-015","Latitude":"44.6069291","Longitude":"-72.52611","Name":"Beaver Lake - Hyde Park (16 acres)"},{"ID":"L751875","Country":"US","State/Province":"US-VT","Region":"US-VT-009","Latitude":"44.8120591","Longitude":"-71.8505335","Name":"Beecher Pond - Brighton (15 acres)"},{"ID":"L751877","Country":"US","State/Province":"US-VT","Region":"US-VT-021","Latitude":"43.3146442","Longitude":"-72.9308023","Name":"Big Mud Pond - Mount Tabor (15 acres)"},{"ID":"L751886","Country":"US","State/Province":"US-VT","Region":"US-VT-019","Latitude":"44.7307163","Longitude":"-71.9824122","Name":"Brown Pond - Westmore (15 acres)"},{"ID":"L1951317","Country":"US","State/Province":"US-VT","Region":"US-VT-005","Latitude":"44.6489942","Longitude":"-72.0658493","Name":"Calendar Brook WMA"},{"ID":"L13018120","Country":"US","State/Province":"US-VT","Region":"US-VT-007","Latitude":"44.5145254","Longitude":"-72.8840873","Name":"Casey's Hill"},{"ID":"L751904","Country":"US","State/Province":"US-VT","Region":"US-VT-019","Latitude":"44.9136313","Longitude":"-72.1357874","Name":"Cobb Pond - Derby (27 acres)"},{"ID":"L16053645","Country":"US","State/Province":"US-VT","Region":"US-VT-009","Latitude":"44.4777","Longitude":"-71.8229","Name":"Concord Woods (UVM Natural Area)"},{"ID":"L751920","Country":"US","State/Province":"US-VT","Region":"US-VT-011","Latitude":"44.986565","Longitude":"-73.0374923","Name":"Cutler Pond - Highgate (25 acres)"},{"ID":"L751924","Country":"US","State/Province":"US-VT","Region":"US-VT-025","Latitude":"42.7900992","Longitude":"-72.7135664","Name":"Deer Park Pond - Halifax (22 acres)"},{"ID":"L751928","Country":"US","State/Province":"US-VT","Region":"US-VT-001","Latitude":"43.7586417","Longitude":"-73.2829348","Name":"Doughty Pond - Orwell (17 acres)"},{"ID":"L751931","Country":"US","State/Province":"US-VT","Region":"US-VT-009","Latitude":"44.6400538","Longitude":"-71.6078236","Name":"Dutton Pond - Maidstone (12 acres)"},{"ID":"L17695552","Country":"US","State/Province":"US-VT","Region":"US-VT-001","Latitude":"44.2236969","Longitude":"-73.21664","Name":"Ferrisburgh Town Forest"},{"ID":"L751947","Country":"US","State/Province":"US-VT","Region":"US-VT-017","Latitude":"43.8469178","Longitude":"-72.4280062","Name":"Fuller Pond - Strafford (18 acres)"},{"ID":"L751963","Country":"US","State/Province":"US-VT","Region":"US-VT-009","Latitude":"44.9788845","Longitude":"-71.9023436","Name":"Halfway Pond - Norton (22 acres)"},{"ID":"L751990","Country":"US","State/Province":"US-VT","Region":"US-VT-001","Latitude":"43.7663095","Longitude":"-73.2234449","Name":"Johnson Pond - Orwell (20 acres)"},{"ID":"L751997","Country":"US","State/Province":"US-VT","Region":"US-VT-019","Latitude":"44.871155","Longitude":"-72.307708","Name":"Kidder Pond - Irasburg (16 acres)"},{"ID":"L752018","Country":"US","State/Province":"US-VT","Region":"US-VT-003","Latitude":"43.1626998","Longitude":"-73.1433467","Name":"Lake Madeleine - Sandgate (20 acres)"},{"ID":"L752022","Country":"US","State/Province":"US-VT","Region":"US-VT-027","Latitude":"43.7484422","Longitude":"-72.4028863","Name":"Lake Mitchell - Sharon (28 acres)"},{"ID":"L1951579","Country":"US","State/Province":"US-VT","Region":"US-VT-027","Latitude":"43.7205595","Longitude":"-72.697649","Name":"Les Newell WMA"},{"ID":"L752048","Country":"US","State/Province":"US-VT","Region":"US-VT-011","Latitude":"44.9569259","Longitude":"-72.8278502","Name":"Little Pond - Franklin (95 acres)"},{"ID":"L752056","Country":"US","State/Province":"US-VT","Region":"US-VT-017","Latitude":"44.1047507","Longitude":"-72.1663207","Name":"Long Pond - Newbury (15 acres)"},{"ID":"L752059","Country":"US","State/Province":"US-VT","Region":"US-VT-011","Latitude":"44.7681735","Longitude":"-73.0927301","Name":"Lost Pond - Georgia (10 acres)"},{"ID":"L752063","Country":"US","State/Province":"US-VT","Region":"US-VT-003","Latitude":"43.0928078","Longitude":"-73.0343267","Name":"Lye Brook Meadows - N - Sunderland (10 acres)"},{"ID":"L752064","Country":"US","State/Province":"US-VT","Region":"US-VT-003","Latitude":"43.0895148","Longitude":"-73.033115","Name":"Lye Brook Meadows - S - Sunderland (18 acres)"},{"ID":"L752077","Country":"US","State/Province":"US-VT","Region":"US-VT-027","Latitude":"43.5556416","Longitude":"-72.6391633","Name":"Mecawee Pond - Reading (11 acres)"},{"ID":"L16053614","Country":"US","State/Province":"US-VT","Region":"US-VT-015","Latitude":"44.4992","Longitude":"-72.6424","Name":"Molly Bog (UVM Natural Area)"},{"ID":"L2019654","Country":"US","State/Province":"US-VT","Region":"US-VT-021","Latitude":"43.3659993","Longitude":"-72.9342842","Name":"Mt. Tabor-Landgrove Rd. (Forest Rd. 10)--Northwest Section"},{"ID":"L752096","Country":"US","State/Province":"US-VT","Region":"US-VT-019","Latitude":"44.937018","Longitude":"-72.0287162","Name":"Mud Pond - Holland (14 acres)"},{"ID":"L752102","Country":"US","State/Province":"US-VT","Region":"US-VT-003","Latitude":"43.2232831","Longitude":"-72.8724897","Name":"Mud Pond - Peru (10 acres)"},{"ID":"L752105","Country":"US","State/Province":"US-VT","Region":"US-VT-019","Latitude":"44.7486059","Longitude":"-72.0242049","Name":"Negro Pond (Hedgehog) - Westmore (12 acres)"},{"ID":"L752138","Country":"US","State/Province":"US-VT","Region":"US-VT-007","Latitude":"44.4181512","Longitude":"-72.9463099","Name":"Richmond Pond - Richmond (24 acres)"},{"ID":"L1952105","Country":"US","State/Province":"US-VT","Region":"US-VT-027","Latitude":"43.9204625","Longitude":"-72.7520227","Name":"Rochester WMA / Rochester Hollow Road"},{"ID":"L752146","Country":"US","State/Province":"US-VT","Region":"US-VT-021","Latitude":"43.6792657","Longitude":"-73.3494383","Name":"Root Pond - Benson (18 acres)"},{"ID":"L752148","Country":"US","State/Province":"US-VT","Region":"US-VT-019","Latitude":"45.001692","Longitude":"-71.9256815","Name":"Round Pond - Holland (14 acres)"},{"ID":"L752150","Country":"US","State/Province":"US-VT","Region":"US-VT-017","Latitude":"44.1052738","Longitude":"-72.1590144","Name":"Round Pond - Newbury (30 acres)"},{"ID":"L752155","Country":"US","State/Province":"US-VT","Region":"US-VT-015","Latitude":"44.6708561","Longitude":"-72.5309581","Name":"Rush Pond - Eden (14 acres)"},{"ID":"L752171","Country":"US","State/Province":"US-VT","Region":"US-VT-025","Latitude":"42.7470071","Longitude":"-72.8358346","Name":"Shippee Pond - Whitingham (24 acres)"},{"ID":"L752183","Country":"US","State/Province":"US-VT","Region":"US-VT-027","Latitude":"43.4635509","Longitude":"-72.5936727","Name":"South Reading Pond - Reading (12 acres)"},{"ID":"L752189","Country":"US","State/Province":"US-VT","Region":"US-VT-001","Latitude":"43.7626076","Longitude":"-73.2785152","Name":"Spruce Pond - Orwell (25 acres)"},{"ID":"L752193","Country":"US","State/Province":"US-VT","Region":"US-VT-003","Latitude":"42.8222259","Longitude":"-73.0651352","Name":"Stamford Pond - Stamford (12 acres)"},{"ID":"L752194","Country":"US","State/Province":"US-VT","Region":"US-VT-027","Latitude":"43.8171884","Longitude":"-72.4253776","Name":"Standing Pond - Sharon (15 acres)"},{"ID":"L14457929","Country":"US","State/Province":"US-VT","Region":"US-VT-005","Latitude":"44.4887917","Longitude":"-72.1886891","Name":"Steam Mill Brook WMA--Walden section"},{"ID":"L752198","Country":"US","State/Province":"US-VT","Region":"US-VT-009","Latitude":"44.5985906","Longitude":"-71.5713599","Name":"Stevens Pond - Maidstone (26 acres)"},{"ID":"L752203","Country":"US","State/Province":"US-VT","Region":"US-VT-021","Latitude":"43.7561692","Longitude":"-73.0279796","Name":"Sugar Hollow Pond - Pittsford (21 acres)"},{"ID":"L2006356","Country":"US","State/Province":"US-VT","Region":"US-VT-003","Latitude":"43.104556","Longitude":"-73.06717","Name":"The Burning"},{"ID":"L1951130","Country":"US","State/Province":"US-VT","Region":"US-VT-009","Latitude":"44.9873846","Longitude":"-71.7309809","Name":"The Kingdom State Forest"},{"ID":"L752219","Country":"US","State/Province":"US-VT","Region":"US-VT-009","Latitude":"44.7065346","Longitude":"-71.6287237","Name":"Tuttle Pond - Brunswick (14 acres)"},{"ID":"L752222","Country":"US","State/Province":"US-VT","Region":"US-VT-011","Latitude":"44.9160325","Longitude":"-73.084671","Name":"Unnamed Pond - Swanton (27 acres)"},{"ID":"L752227","Country":"US","State/Province":"US-VT","Region":"US-VT-005","Latitude":"44.7048576","Longitude":"-72.0736547","Name":"Vail Pond - Sutton (16 acres)"},{"ID":"L2485314","Country":"US","State/Province":"US-VT","Region":"US-VT-025","Latitude":"42.7382304","Longitude":"-72.5251079","Name":"Vermont Woods Studios"},{"ID":"L752232","Country":"US","State/Province":"US-VT","Region":"US-VT-021","Latitude":"43.7425001","Longitude":"-73.1413875","Name":"Walker Pond - Hubbardton (13 acres)"}]